markers:
- header:
    stamp:
      sec: 0
      nanosec: 0
    frame_id: world
  ns: primal_28
  id: 200
  type: 11
  action: 0
  pose:
    position:
      x: 0.36060061287276757
      y: 0.13993823383319465
      z: 0.08334683842187454
    orientation:
      x: 0.0
      y: 0.0
      z: 0.0
      w: 1.0
  scale:
    x: 1.0
    y: 1.0
    z: 1.0
  color:
    r: 0.8627451062202454
    g: 0.9176470637321472
    b: 0.9803921580314636
    a: 0.800000011920929
  lifetime:
    sec: 0
    nanosec: 0
  frame_locked: false
  points:
  - x: 0.0
    y: 0.0
    z: 0.0
  - x: -0.11143420658978244
    y: 0.050172354871683714
    z: 0.08690849487548959
  - x: -0.11146045071224993
    y: 0.10034470974336743
    z: 3.367122482503671e-05
  - x: 0.0
    y: 0.0
    z: 0.0
  - x: -0.11146045071224993
    y: 0.10034470974336743
    z: 3.367122482503671e-05
  - x: -0.11148669483471743
    y: 0.05017235487168375
    z: -0.08684115242583955
  - x: 0.0
    y: 0.0
    z: 0.0
  - x: -0.11148669483471743
    y: 0.05017235487168375
    z: -0.08684115242583955
  - x: -0.11148669483471743
    y: -0.05017235487168367
    z: -0.0868411524258396
  - x: 0.0
    y: 0.0
    z: 0.0
  - x: -0.11148669483471743
    y: -0.05017235487168367
    z: -0.0868411524258396
  - x: -0.11146045071224993
    y: -0.10034470974336743
    z: 3.367122482493682e-05
  - x: 0.0
    y: 0.0
    z: 0.0
  - x: -0.11146045071224993
    y: -0.10034470974336743
    z: 3.367122482493682e-05
  - x: -0.11143420658978244
    y: -0.0501723548716838
    z: 0.08690849487548954
  - x: 0.0
    y: 0.0
    z: 0.0
  - x: -0.11143420658978244
    y: -0.0501723548716838
    z: 0.08690849487548954
  - x: -0.11143420658978244
    y: 0.050172354871683714
    z: 0.08690849487548959
  colors: []
  texture_resource: ''
  texture:
    header:
      stamp:
        sec: 0
        nanosec: 0
      frame_id: ''
    format: ''
    data: []
  uv_coordinates: []
  text: ''
  mesh_resource: ''
  mesh_file:
    filename: ''
    data: []
  mesh_use_embedded_materials: false
---
markers:
- header:
    stamp:
      sec: 0
      nanosec: 0
    frame_id: world
  ns: primal_29
  id: 200
  type: 11
  action: 0
  pose:
    position:
      x: 0.17413971225970076
      y: -0.14795502708460595
      z: -7.888463999594642e-05
    orientation:
      x: 0.0
      y: 0.0
      z: 0.0
      w: 1.0
  scale:
    x: 1.0
    y: 1.0
    z: 1.0
  color:
    r: 0.8627451062202454
    g: 0.9176470637321472
    b: 0.9803921580314636
    a: 0.800000011920929
  lifetime:
    sec: 0
    nanosec: 0
  frame_locked: false
  points:
  - x: 0.0
    y: 0.0
    z: 0.0
  - x: 0.08690106777313208
    y: 0.050172354871683714
    z: 0.11149412193707493
  - x: 2.498001805406602e-17
    y: 0.10034470974336743
    z: 0.11149412193707493
  - x: 0.0
    y: 0.0
    z: 0.0
  - x: 2.498001805406602e-17
    y: 0.10034470974336743
    z: 0.11149412193707493
  - x: -0.08690106777313204
    y: 0.05017235487168375
    z: 0.11149412193707493
  - x: 0.0
    y: 0.0
    z: 0.0
  - x: -0.08690106777313204
    y: 0.05017235487168375
    z: 0.11149412193707493
  - x: -0.0869010677731321
    y: -0.05017235487168367
    z: 0.11149412193707493
  - x: 0.0
    y: 0.0
    z: 0.0
  - x: -0.0869010677731321
    y: -0.05017235487168367
    z: 0.11149412193707493
  - x: -7.494005416219806e-17
    y: -0.10034470974336743
    z: 0.11149412193707493
  - x: 0.0
    y: 0.0
    z: 0.0
  - x: -7.494005416219806e-17
    y: -0.10034470974336743
    z: 0.11149412193707493
  - x: 0.08690106777313203
    y: -0.0501723548716838
    z: 0.11149412193707493
  - x: 0.0
    y: 0.0
    z: 0.0
  - x: 0.08690106777313203
    y: -0.0501723548716838
    z: 0.11149412193707493
  - x: 0.08690106777313208
    y: 0.050172354871683714
    z: 0.11149412193707493
  colors: []
  texture_resource: ''
  texture:
    header:
      stamp:
        sec: 0
        nanosec: 0
      frame_id: ''
    format: ''
    data: []
  uv_coordinates: []
  text: ''
  mesh_resource: ''
  mesh_file:
    filename: ''
    data: []
  mesh_use_embedded_materials: false
---
markers:
- header:
    stamp:
      sec: 0
      nanosec: 0
    frame_id: world
  ns: primal_30
  id: 200
  type: 11
  action: 0
  pose:
    position:
      x: -0.17814822474913897
      y: 0.14808048996910445
      z: 8.970092293830723e-05
    orientation:
      x: 0.0
      y: 0.0
      z: 0.0
      w: 1.0
  scale:
    x: 1.0
    y: 1.0
    z: 1.0
  color:
    r: 0.8627451062202454
    g: 0.9176470637321472
    b: 0.9803921580314636
    a: 0.800000011920929
  lifetime:
    sec: 0
    nanosec: 0
  frame_locked: false
  points:
  - x: 0.0
    y: 0.0
    z: 0.0
  - x: 0.08690106777313208
    y: 0.050172354871683714
    z: 0.11149412193707493
  - x: 2.498001805406602e-17
    y: 0.10034470974336743
    z: 0.11149412193707493
  - x: 0.0
    y: 0.0
    z: 0.0
  - x: 2.498001805406602e-17
    y: 0.10034470974336743
    z: 0.11149412193707493
  - x: -0.08690106777313204
    y: 0.05017235487168375
    z: 0.11149412193707493
  - x: 0.0
    y: 0.0
    z: 0.0
  - x: -0.08690106777313204
    y: 0.05017235487168375
    z: 0.11149412193707493
  - x: -0.0869010677731321
    y: -0.05017235487168367
    z: 0.11149412193707493
  - x: 0.0
    y: 0.0
    z: 0.0
  - x: -0.0869010677731321
    y: -0.05017235487168367
    z: 0.11149412193707493
  - x: -7.494005416219806e-17
    y: -0.10034470974336743
    z: 0.11149412193707493
  - x: 0.0
    y: 0.0
    z: 0.0
  - x: -7.494005416219806e-17
    y: -0.10034470974336743
    z: 0.11149412193707493
  - x: 0.08690106777313203
    y: -0.0501723548716838
    z: 0.11149412193707493
  - x: 0.0
    y: 0.0
    z: 0.0
  - x: 0.08690106777313203
    y: -0.0501723548716838
    z: 0.11149412193707493
  - x: 0.08690106777313208
    y: 0.050172354871683714
    z: 0.11149412193707493
  colors: []
  texture_resource: ''
  texture:
    header:
      stamp:
        sec: 0
        nanosec: 0
      frame_id: ''
    format: ''
    data: []
  uv_coordinates: []
  text: ''
  mesh_resource: ''
  mesh_file:
    filename: ''
    data: []
  mesh_use_embedded_materials: false
---
markers:
- header:
    stamp:
      sec: 0
      nanosec: 0
    frame_id: world
  ns: primal_48
  id: 200
  type: 11
  action: 0
  pose:
    position:
      x: 0.3606035175095876
      y: 0.1400455922276106
      z: 0.09296193650368116
    orientation:
      x: 0.0
      y: 0.0
      z: 0.0
      w: 1.0
  scale:
    x: 1.0
    y: 1.0
    z: 1.0
  color:
    r: 0.8627451062202454
    g: 0.9176470637321472
    b: 0.9803921580314636
    a: 0.800000011920929
  lifetime:
    sec: 0
    nanosec: 0
  frame_locked: false
  points:
  - x: 0.0
    y: 0.0
    z: 0.0
  - x: -0.11143420658978244
    y: 0.050172354871683714
    z: 0.08690849487548959
  - x: -0.11146045071224993
    y: 0.10034470974336743
    z: 3.367122482503671e-05
  - x: 0.0
    y: 0.0
    z: 0.0
  - x: -0.11146045071224993
    y: 0.10034470974336743
    z: 3.367122482503671e-05
  - x: -0.11148669483471743
    y: 0.05017235487168375
    z: -0.08684115242583955
  - x: 0.0
    y: 0.0
    z: 0.0
  - x: -0.11148669483471743
    y: 0.05017235487168375
    z: -0.08684115242583955
  - x: -0.11148669483471743
    y: -0.05017235487168367
    z: -0.0868411524258396
  - x: 0.0
    y: 0.0
    z: 0.0
  - x: -0.11148669483471743
    y: -0.05017235487168367
    z: -0.0868411524258396
  - x: -0.11146045071224993
    y: -0.10034470974336743
    z: 3.367122482493682e-05
  - x: 0.0
    y: 0.0
    z: 0.0
  - x: -0.11146045071224993
    y: -0.10034470974336743
    z: 3.367122482493682e-05
  - x: -0.11143420658978244
    y: -0.0501723548716838
    z: 0.08690849487548954
  - x: 0.0
    y: 0.0
    z: 0.0
  - x: -0.11143420658978244
    y: -0.0501723548716838
    z: 0.08690849487548954
  - x: -0.11143420658978244
    y: 0.050172354871683714
    z: 0.08690849487548959
  colors: []
  texture_resource: ''
  texture:
    header:
      stamp:
        sec: 0
        nanosec: 0
      frame_id: ''
    format: ''
    data: []
  uv_coordinates: []
  text: ''
  mesh_resource: ''
  mesh_file:
    filename: ''
    data: []
  mesh_use_embedded_materials: false
---
markers:
- header:
    stamp:
      sec: 0
      nanosec: 0
    frame_id: world
  ns: primal_49
  id: 200
  type: 11
  action: 0
  pose:
    position:
      x: 0.1844758859293914
      y: -0.14799476834168426
      z: -7.888463999594642e-05
    orientation:
      x: 0.0
      y: 0.0
      z: 0.0
      w: 1.0
  scale:
    x: 1.0
    y: 1.0
    z: 1.0
  color:
    r: 0.8627451062202454
    g: 0.9176470637321472
    b: 0.9803921580314636
    a: 0.800000011920929
  lifetime:
    sec: 0
    nanosec: 0
  frame_locked: false
  points:
  - x: 0.0
    y: 0.0
    z: 0.0
  - x: 0.08690106777313208
    y: 0.050172354871683714
    z: 0.11149412193707493
  - x: 2.498001805406602e-17
    y: 0.10034470974336743
    z: 0.11149412193707493
  - x: 0.0
    y: 0.0
    z: 0.0
  - x: 2.498001805406602e-17
    y: 0.10034470974336743
    z: 0.11149412193707493
  - x: -0.08690106777313204
    y: 0.05017235487168375
    z: 0.11149412193707493
  - x: 0.0
    y: 0.0
    z: 0.0
  - x: -0.08690106777313204
    y: 0.05017235487168375
    z: 0.11149412193707493
  - x: -0.0869010677731321
    y: -0.05017235487168367
    z: 0.11149412193707493
  - x: 0.0
    y: 0.0
    z: 0.0
  - x: -0.0869010677731321
    y: -0.05017235487168367
    z: 0.11149412193707493
  - x: -7.494005416219806e-17
    y: -0.10034470974336743
    z: 0.11149412193707493
  - x: 0.0
    y: 0.0
    z: 0.0
  - x: -7.494005416219806e-17
    y: -0.10034470974336743
    z: 0.11149412193707493
  - x: 0.08690106777313203
    y: -0.0501723548716838
    z: 0.11149412193707493
  - x: 0.0
    y: 0.0
    z: 0.0
  - x: 0.08690106777313203
    y: -0.0501723548716838
    z: 0.11149412193707493
  - x: 0.08690106777313208
    y: 0.050172354871683714
    z: 0.11149412193707493
  colors: []
  texture_resource: ''
  texture:
    header:
      stamp:
        sec: 0
        nanosec: 0
      frame_id: ''
    format: ''
    data: []
  uv_coordinates: []
  text: ''
  mesh_resource: ''
  mesh_file:
    filename: ''
    data: []
  mesh_use_embedded_materials: false
---
markers:
- header:
    stamp:
      sec: 0
      nanosec: 0
    frame_id: world
  ns: primal_51
  id: 200
  type: 11
  action: 0
  pose:
    position:
      x: -0.3609929550703264
      y: -0.13993761533967175
      z: 0.08401367252897941
    orientation:
      x: 0.0
      y: 0.0
      z: 0.0
      w: 1.0
  scale:
    x: 1.0
    y: 1.0
    z: 1.0
  color:
    r: 0.8627451062202454
    g: 0.9176470637321472
    b: 0.9803921580314636
    a: 0.800000011920929
  lifetime:
    sec: 0
    nanosec: 0
  frame_locked: false
  points:
  - x: 0.0
    y: 0.0
    z: 0.0
  - x: 0.11148669483471743
    y: 0.050172354871683714
    z: -0.08684115242583958
  - x: 0.11146045071224993
    y: 0.10034470974336743
    z: 3.367122482498676e-05
  - x: 0.0
    y: 0.0
    z: 0.0
  - x: 0.11146045071224993
    y: 0.10034470974336743
    z: 3.367122482498676e-05
  - x: 0.11143420658978244
    y: 0.05017235487168375
    z: 0.08690849487548956
  - x: 0.0
    y: 0.0
    z: 0.0
  - x: 0.11143420658978244
    y: 0.05017235487168375
    z: 0.08690849487548956
  - x: 0.11143420658978244
    y: -0.05017235487168367
    z: 0.08690849487548961
  - x: 0.0
    y: 0.0
    z: 0.0
  - x: 0.11143420658978244
    y: -0.05017235487168367
    z: 0.08690849487548961
  - x: 0.11146045071224993
    y: -0.10034470974336743
    z: 3.367122482508665e-05
  - x: 0.0
    y: 0.0
    z: 0.0
  - x: 0.11146045071224993
    y: -0.10034470974336743
    z: 3.367122482508665e-05
  - x: 0.11148669483471743
    y: -0.0501723548716838
    z: -0.08684115242583954
  - x: 0.0
    y: 0.0
    z: 0.0
  - x: 0.11148669483471743
    y: -0.0501723548716838
    z: -0.08684115242583954
  - x: 0.11148669483471743
    y: 0.050172354871683714
    z: -0.08684115242583958
  colors: []
  texture_resource: ''
  texture:
    header:
      stamp:
        sec: 0
        nanosec: 0
      frame_id: ''
    format: ''
    data: []
  uv_coordinates: []
  text: ''
  mesh_resource: ''
  mesh_file:
    filename: ''
    data: []
  mesh_use_embedded_materials: false
---
markers:
- header:
    stamp:
      sec: 0
      nanosec: 0
    frame_id: world
  ns: primal_68
  id: 200
  type: 11
  action: 0
  pose:
    position:
      x: 0.3606022416588877
      y: 0.14011853766694207
      z: 0.0887385411681428
    orientation:
      x: 0.0
      y: 0.0
      z: 0.0
      w: 1.0
  scale:
    x: 1.0
    y: 1.0
    z: 1.0
  color:
    r: 0.8627451062202454
    g: 0.9176470637321472
    b: 0.9803921580314636
    a: 0.800000011920929
  lifetime:
    sec: 0
    nanosec: 0
  frame_locked: false
  points:
  - x: 0.0
    y: 0.0
    z: 0.0
  - x: -0.11143420658978244
    y: 0.050172354871683714
    z: 0.08690849487548959
  - x: -0.11146045071224993
    y: 0.10034470974336743
    z: 3.367122482503671e-05
  - x: 0.0
    y: 0.0
    z: 0.0
  - x: -0.11146045071224993
    y: 0.10034470974336743
    z: 3.367122482503671e-05
  - x: -0.11148669483471743
    y: 0.05017235487168375
    z: -0.08684115242583955
  - x: 0.0
    y: 0.0
    z: 0.0
  - x: -0.11148669483471743
    y: 0.05017235487168375
    z: -0.08684115242583955
  - x: -0.11148669483471743
    y: -0.05017235487168367
    z: -0.0868411524258396
  - x: 0.0
    y: 0.0
    z: 0.0
  - x: -0.11148669483471743
    y: -0.05017235487168367
    z: -0.0868411524258396
  - x: -0.11146045071224993
    y: -0.10034470974336743
    z: 3.367122482493682e-05
  - x: 0.0
    y: 0.0
    z: 0.0
  - x: -0.11146045071224993
    y: -0.10034470974336743
    z: 3.367122482493682e-05
  - x: -0.11143420658978244
    y: -0.0501723548716838
    z: 0.08690849487548954
  - x: 0.0
    y: 0.0
    z: 0.0
  - x: -0.11143420658978244
    y: -0.0501723548716838
    z: 0.08690849487548954
  - x: -0.11143420658978244
    y: 0.050172354871683714
    z: 0.08690849487548959
  colors: []
  texture_resource: ''
  texture:
    header:
      stamp:
        sec: 0
        nanosec: 0
      frame_id: ''
    format: ''
    data: []
  uv_coordinates: []
  text: ''
  mesh_resource: ''
  mesh_file:
    filename: ''
    data: []
  mesh_use_embedded_materials: false
---
markers:
- header:
    stamp:
      sec: 0
      nanosec: 0
    frame_id: world
  ns: primal_70
  id: 200
  type: 11
  action: 0
  pose:
    position:
      x: -0.3610388893573938
      y: 0.14033534888209345
      z: 0.0831241224154837
    orientation:
      x: 0.0
      y: 0.0
      z: 0.0
      w: 1.0
  scale:
    x: 1.0
    y: 1.0
    z: 1.0
  color:
    r: 0.8627451062202454
    g: 0.9176470637321472
    b: 0.9803921580314636
    a: 0.800000011920929
  lifetime:
    sec: 0
    nanosec: 0
  frame_locked: false
  points:
  - x: 0.0
    y: 0.0
    z: 0.0
  - x: 0.11148669483471743
    y: 0.050172354871683714
    z: -0.08684115242583958
  - x: 0.11146045071224993
    y: 0.10034470974336743
    z: 3.367122482498676e-05
  - x: 0.0
    y: 0.0
    z: 0.0
  - x: 0.11146045071224993
    y: 0.10034470974336743
    z: 3.367122482498676e-05
  - x: 0.11143420658978244
    y: 0.05017235487168375
    z: 0.08690849487548956
  - x: 0.0
    y: 0.0
    z: 0.0
  - x: 0.11143420658978244
    y: 0.05017235487168375
    z: 0.08690849487548956
  - x: 0.11143420658978244
    y: -0.05017235487168367
    z: 0.08690849487548961
  - x: 0.0
    y: 0.0
    z: 0.0
  - x: 0.11143420658978244
    y: -0.05017235487168367
    z: 0.08690849487548961
  - x: 0.11146045071224993
    y: -0.10034470974336743
    z: 3.367122482508665e-05
  - x: 0.0
    y: 0.0
    z: 0.0
  - x: 0.11146045071224993
    y: -0.10034470974336743
    z: 3.367122482508665e-05
  - x: 0.11148669483471743
    y: -0.0501723548716838
    z: -0.08684115242583954
  - x: 0.0
    y: 0.0
    z: 0.0
  - x: 0.11148669483471743
    y: -0.0501723548716838
    z: -0.08684115242583954
  - x: 0.11148669483471743
    y: 0.050172354871683714
    z: -0.08684115242583958
  colors: []
  texture_resource: ''
  texture:
    header:
      stamp:
        sec: 0
        nanosec: 0
      frame_id: ''
    format: ''
    data: []
  uv_coordinates: []
  text: ''
  mesh_resource: ''
  mesh_file:
    filename: ''
    data: []
  mesh_use_embedded_materials: false
---
markers:
- header:
    stamp:
      sec: 0
      nanosec: 0
    frame_id: world
  ns: primal_71
  id: 200
  type: 11
  action: 0
  pose:
    position:
      x: -0.36099331162362364
      y: -0.14000312571445672
      z: 0.08519395603731025
    orientation:
      x: 0.0
      y: 0.0
      z: 0.0
      w: 1.0
  scale:
    x: 1.0
    y: 1.0
    z: 1.0
  color:
    r: 0.8627451062202454
    g: 0.9176470637321472
    b: 0.9803921580314636
    a: 0.800000011920929
  lifetime:
    sec: 0
    nanosec: 0
  frame_locked: false
  points:
  - x: 0.0
    y: 0.0
    z: 0.0
  - x: 0.11148669483471743
    y: 0.050172354871683714
    z: -0.08684115242583958
  - x: 0.11146045071224993
    y: 0.10034470974336743
    z: 3.367122482498676e-05
  - x: 0.0
    y: 0.0
    z: 0.0
  - x: 0.11146045071224993
    y: 0.10034470974336743
    z: 3.367122482498676e-05
  - x: 0.11143420658978244
    y: 0.05017235487168375
    z: 0.08690849487548956
  - x: 0.0
    y: 0.0
    z: 0.0
  - x: 0.11143420658978244
    y: 0.05017235487168375
    z: 0.08690849487548956
  - x: 0.11143420658978244
    y: -0.05017235487168367
    z: 0.08690849487548961
  - x: 0.0
    y: 0.0
    z: 0.0
  - x: 0.11143420658978244
    y: -0.05017235487168367
    z: 0.08690849487548961
  - x: 0.11146045071224993
    y: -0.10034470974336743
    z: 3.367122482508665e-05
  - x: 0.0
    y: 0.0
    z: 0.0
  - x: 0.11146045071224993
    y: -0.10034470974336743
    z: 3.367122482508665e-05
  - x: 0.11148669483471743
    y: -0.0501723548716838
    z: -0.08684115242583954
  - x: 0.0
    y: 0.0
    z: 0.0
  - x: 0.11148669483471743
    y: -0.0501723548716838
    z: -0.08684115242583954
  - x: 0.11148669483471743
    y: 0.050172354871683714
    z: -0.08684115242583958
  colors: []
  texture_resource: ''
  texture:
    header:
      stamp:
        sec: 0
        nanosec: 0
      frame_id: ''
    format: ''
    data: []
  uv_coordinates: []
  text: ''
  mesh_resource: ''
  mesh_file:
    filename: ''
    data: []
  mesh_use_embedded_materials: false
---
markers:
- header:
    stamp:
      sec: 0
      nanosec: 0
    frame_id: world
  ns: primal_89
  id: 200
  type: 11
  action: 0
  pose:
    position:
      x: 0.36072997877557555
      y: -0.1405518569383294
      z: 0.08399905605659692
    orientation:
      x: 0.0
      y: 0.0
      z: 0.0
      w: 1.0
  scale:
    x: 1.0
    y: 1.0
    z: 1.0
  color:
    r: 0.8627451062202454
    g: 0.9176470637321472
    b: 0.9803921580314636
    a: 0.800000011920929
  lifetime:
    sec: 0
    nanosec: 0
  frame_locked: false
  points:
  - x: 0.0
    y: 0.0
    z: 0.0
  - x: -0.11143420658978244
    y: 0.050172354871683714
    z: 0.08690849487548959
  - x: -0.11146045071224993
    y: 0.10034470974336743
    z: 3.367122482503671e-05
  - x: 0.0
    y: 0.0
    z: 0.0
  - x: -0.11146045071224993
    y: 0.10034470974336743
    z: 3.367122482503671e-05
  - x: -0.11148669483471743
    y: 0.05017235487168375
    z: -0.08684115242583955
  - x: 0.0
    y: 0.0
    z: 0.0
  - x: -0.11148669483471743
    y: 0.05017235487168375
    z: -0.08684115242583955
  - x: -0.11148669483471743
    y: -0.05017235487168367
    z: -0.0868411524258396
  - x: 0.0
    y: 0.0
    z: 0.0
  - x: -0.11148669483471743
    y: -0.05017235487168367
    z: -0.0868411524258396
  - x: -0.11146045071224993
    y: -0.10034470974336743
    z: 3.367122482493682e-05
  - x: 0.0
    y: 0.0
    z: 0.0
  - x: -0.11146045071224993
    y: -0.10034470974336743
    z: 3.367122482493682e-05
  - x: -0.11143420658978244
    y: -0.0501723548716838
    z: 0.08690849487548954
  - x: 0.0
    y: 0.0
    z: 0.0
  - x: -0.11143420658978244
    y: -0.0501723548716838
    z: 0.08690849487548954
  - x: -0.11143420658978244
    y: 0.050172354871683714
    z: 0.08690849487548959
  colors: []
  texture_resource: ''
  texture:
    header:
      stamp:
        sec: 0
        nanosec: 0
      frame_id: ''
    format: ''
    data: []
  uv_coordinates: []
  text: ''
  mesh_resource: ''
  mesh_file:
    filename: ''
    data: []
  mesh_use_embedded_materials: false
---
markers:
- header:
    stamp:
      sec: 0
      nanosec: 0
    frame_id: world
  ns: primal_90
  id: 200
  type: 11
  action: 0
  pose:
    position:
      x: -0.3610397563420513
      y: 0.14042793849349222
      z: 0.08599406554786342
    orientation:
      x: 0.0
      y: 0.0
      z: 0.0
      w: 1.0
  scale:
    x: 1.0
    y: 1.0
    z: 1.0
  color:
    r: 0.8627451062202454
    g: 0.9176470637321472
    b: 0.9803921580314636
    a: 0.800000011920929
  lifetime:
    sec: 0
    nanosec: 0
  frame_locked: false
  points:
  - x: 0.0
    y: 0.0
    z: 0.0
  - x: 0.11148669483471743
    y: 0.050172354871683714
    z: -0.08684115242583958
  - x: 0.11146045071224993
    y: 0.10034470974336743
    z: 3.367122482498676e-05
  - x: 0.0
    y: 0.0
    z: 0.0
  - x: 0.11146045071224993
    y: 0.10034470974336743
    z: 3.367122482498676e-05
  - x: 0.11143420658978244
    y: 0.05017235487168375
    z: 0.08690849487548956
  - x: 0.0
    y: 0.0
    z: 0.0
  - x: 0.11143420658978244
    y: 0.05017235487168375
    z: 0.08690849487548956
  - x: 0.11143420658978244
    y: -0.05017235487168367
    z: 0.08690849487548961
  - x: 0.0
    y: 0.0
    z: 0.0
  - x: 0.11143420658978244
    y: -0.05017235487168367
    z: 0.08690849487548961
  - x: 0.11146045071224993
    y: -0.10034470974336743
    z: 3.367122482508665e-05
  - x: 0.0
    y: 0.0
    z: 0.0
  - x: 0.11146045071224993
    y: -0.10034470974336743
    z: 3.367122482508665e-05
  - x: 0.11148669483471743
    y: -0.0501723548716838
    z: -0.08684115242583954
  - x: 0.0
    y: 0.0
    z: 0.0
  - x: 0.11148669483471743
    y: -0.0501723548716838
    z: -0.08684115242583954
  - x: 0.11148669483471743
    y: 0.050172354871683714
    z: -0.08684115242583958
  colors: []
  texture_resource: ''
  texture:
    header:
      stamp:
        sec: 0
        nanosec: 0
      frame_id: ''
    format: ''
    data: []
  uv_coordinates: []
  text: ''
  mesh_resource: ''
  mesh_file:
    filename: ''
    data: []
  mesh_use_embedded_materials: false
---
markers:
- header:
    stamp:
      sec: 0
      nanosec: 0
    frame_id: world
  ns: primal_91
  id: 200
  type: 11
  action: 0
  pose:
    position:
      x: -0.36099335904706553
      y: -0.14000904219842764
      z: 0.08535093987826933
    orientation:
      x: 0.0
      y: 0.0
      z: 0.0
      w: 1.0
  scale:
    x: 1.0
    y: 1.0
    z: 1.0
  color:
    r: 0.8627451062202454
    g: 0.9176470637321472
    b: 0.9803921580314636
    a: 0.800000011920929
  lifetime:
    sec: 0
    nanosec: 0
  frame_locked: false
  points:
  - x: 0.0
    y: 0.0
    z: 0.0
  - x: 0.11148669483471743
    y: 0.050172354871683714
    z: -0.08684115242583958
  - x: 0.11146045071224993
    y: 0.10034470974336743
    z: 3.367122482498676e-05
  - x: 0.0
    y: 0.0
    z: 0.0
  - x: 0.11146045071224993
    y: 0.10034470974336743
    z: 3.367122482498676e-05
  - x: 0.11143420658978244
    y: 0.05017235487168375
    z: 0.08690849487548956
  - x: 0.0
    y: 0.0
    z: 0.0
  - x: 0.11143420658978244
    y: 0.05017235487168375
    z: 0.08690849487548956
  - x: 0.11143420658978244
    y: -0.05017235487168367
    z: 0.08690849487548961
  - x: 0.0
    y: 0.0
    z: 0.0
  - x: 0.11143420658978244
    y: -0.05017235487168367
    z: 0.08690849487548961
  - x: 0.11146045071224993
    y: -0.10034470974336743
    z: 3.367122482508665e-05
  - x: 0.0
    y: 0.0
    z: 0.0
  - x: 0.11146045071224993
    y: -0.10034470974336743
    z: 3.367122482508665e-05
  - x: 0.11148669483471743
    y: -0.0501723548716838
    z: -0.08684115242583954
  - x: 0.0
    y: 0.0
    z: 0.0
  - x: 0.11148669483471743
    y: -0.0501723548716838
    z: -0.08684115242583954
  - x: 0.11148669483471743
    y: 0.050172354871683714
    z: -0.08684115242583958
  colors: []
  texture_resource: ''
  texture:
    header:
      stamp:
        sec: 0
        nanosec: 0
      frame_id: ''
    format: ''
    data: []
  uv_coordinates: []
  text: ''
  mesh_resource: ''
  mesh_file:
    filename: ''
    data: []
  mesh_use_embedded_materials: false
---
markers:
- header:
    stamp:
      sec: 0
      nanosec: 0
    frame_id: world
  ns: primal_108
  id: 200
  type: 11
  action: 0
  pose:
    position:
      x: 0.36093276660354506
      y: 0.1402663393887403
      z: 0.15214033706291746
    orientation:
      x: 0.0
      y: 0.0
      z: 0.0
      w: 1.0
  scale:
    x: 1.0
    y: 1.0
    z: 1.0
  color:
    r: 0.8627451062202454
    g: 0.9176470637321472
    b: 0.9803921580314636
    a: 0.800000011920929
  lifetime:
    sec: 0
    nanosec: 0
  frame_locked: false
  points:
  - x: 0.0
    y: 0.0
    z: 0.0
  - x: -0.11143420658978244
    y: 0.050172354871683714
    z: 0.08690849487548959
  - x: -0.11146045071224993
    y: 0.10034470974336743
    z: 3.367122482503671e-05
  - x: 0.0
    y: 0.0
    z: 0.0
  - x: -0.11146045071224993
    y: 0.10034470974336743
    z: 3.367122482503671e-05
  - x: -0.11148669483471743
    y: 0.05017235487168375
    z: -0.08684115242583955
  - x: 0.0
    y: 0.0
    z: 0.0
  - x: -0.11148669483471743
    y: 0.05017235487168375
    z: -0.08684115242583955
  - x: -0.11148669483471743
    y: -0.05017235487168367
    z: -0.0868411524258396
  - x: 0.0
    y: 0.0
    z: 0.0
  - x: -0.11148669483471743
    y: -0.05017235487168367
    z: -0.0868411524258396
  - x: -0.11146045071224993
    y: -0.10034470974336743
    z: 3.367122482493682e-05
  - x: 0.0
    y: 0.0
    z: 0.0
  - x: -0.11146045071224993
    y: -0.10034470974336743
    z: 3.367122482493682e-05
  - x: -0.11143420658978244
    y: -0.0501723548716838
    z: 0.08690849487548954
  - x: 0.0
    y: 0.0
    z: 0.0
  - x: -0.11143420658978244
    y: -0.0501723548716838
    z: 0.08690849487548954
  - x: -0.11143420658978244
    y: 0.050172354871683714
    z: 0.08690849487548959
  colors: []
  texture_resource: ''
  texture:
    header:
      stamp:
        sec: 0
        nanosec: 0
      frame_id: ''
    format: ''
    data: []
  uv_coordinates: []
  text: ''
  mesh_resource: ''
  mesh_file:
    filename: ''
    data: []
  mesh_use_embedded_materials: false
---
markers:
- header:
    stamp:
      sec: 0
      nanosec: 0
    frame_id: world
  ns: primal_109
  id: 200
  type: 11
  action: 0
  pose:
    position:
      x: 0.36073048275706426
      y: -0.14065267362768108
      z: 0.08566736495720072
    orientation:
      x: 0.0
      y: 0.0
      z: 0.0
      w: 1.0
  scale:
    x: 1.0
    y: 1.0
    z: 1.0
  color:
    r: 0.8627451062202454
    g: 0.9176470637321472
    b: 0.9803921580314636
    a: 0.800000011920929
  lifetime:
    sec: 0
    nanosec: 0
  frame_locked: false
  points:
  - x: 0.0
    y: 0.0
    z: 0.0
  - x: -0.11143420658978244
    y: 0.050172354871683714
    z: 0.08690849487548959
  - x: -0.11146045071224993
    y: 0.10034470974336743
    z: 3.367122482503671e-05
  - x: 0.0
    y: 0.0
    z: 0.0
  - x: -0.11146045071224993
    y: 0.10034470974336743
    z: 3.367122482503671e-05
  - x: -0.11148669483471743
    y: 0.05017235487168375
    z: -0.08684115242583955
  - x: 0.0
    y: 0.0
    z: 0.0
  - x: -0.11148669483471743
    y: 0.05017235487168375
    z: -0.08684115242583955
  - x: -0.11148669483471743
    y: -0.05017235487168367
    z: -0.0868411524258396
  - x: 0.0
    y: 0.0
    z: 0.0
  - x: -0.11148669483471743
    y: -0.05017235487168367
    z: -0.0868411524258396
  - x: -0.11146045071224993
    y: -0.10034470974336743
    z: 3.367122482493682e-05
  - x: 0.0
    y: 0.0
    z: 0.0
  - x: -0.11146045071224993
    y: -0.10034470974336743
    z: 3.367122482493682e-05
  - x: -0.11143420658978244
    y: -0.0501723548716838
    z: 0.08690849487548954
  - x: 0.0
    y: 0.0
    z: 0.0
  - x: -0.11143420658978244
    y: -0.0501723548716838
    z: 0.08690849487548954
  - x: -0.11143420658978244
    y: 0.050172354871683714
    z: 0.08690849487548959
  colors: []
  texture_resource: ''
  texture:
    header:
      stamp:
        sec: 0
        nanosec: 0
      frame_id: ''
    format: ''
    data: []
  uv_coordinates: []
  text: ''
  mesh_resource: ''
  mesh_file:
    filename: ''
    data: []
  mesh_use_embedded_materials: false
---
markers:
- header:
    stamp:
      sec: 0
      nanosec: 0
    frame_id: world
  ns: primal_110
  id: 200
  type: 11
  action: 0
  pose:
    position:
      x: -0.3610385154642392
      y: 0.14030418149809049
      z: 0.08188643949944055
    orientation:
      x: 0.0
      y: 0.0
      z: 0.0
      w: 1.0
  scale:
    x: 1.0
    y: 1.0
    z: 1.0
  color:
    r: 0.8627451062202454
    g: 0.9176470637321472
    b: 0.9803921580314636
    a: 0.800000011920929
  lifetime:
    sec: 0
    nanosec: 0
  frame_locked: false
  points:
  - x: 0.0
    y: 0.0
    z: 0.0
  - x: 0.11148669483471743
    y: 0.050172354871683714
    z: -0.08684115242583958
  - x: 0.11146045071224993
    y: 0.10034470974336743
    z: 3.367122482498676e-05
  - x: 0.0
    y: 0.0
    z: 0.0
  - x: 0.11146045071224993
    y: 0.10034470974336743
    z: 3.367122482498676e-05
  - x: 0.11143420658978244
    y: 0.05017235487168375
    z: 0.08690849487548956
  - x: 0.0
    y: 0.0
    z: 0.0
  - x: 0.11143420658978244
    y: 0.05017235487168375
    z: 0.08690849487548956
  - x: 0.11143420658978244
    y: -0.05017235487168367
    z: 0.08690849487548961
  - x: 0.0
    y: 0.0
    z: 0.0
  - x: 0.11143420658978244
    y: -0.05017235487168367
    z: 0.08690849487548961
  - x: 0.11146045071224993
    y: -0.10034470974336743
    z: 3.367122482508665e-05
  - x: 0.0
    y: 0.0
    z: 0.0
  - x: 0.11146045071224993
    y: -0.10034470974336743
    z: 3.367122482508665e-05
  - x: 0.11148669483471743
    y: -0.0501723548716838
    z: -0.08684115242583954
  - x: 0.0
    y: 0.0
    z: 0.0
  - x: 0.11148669483471743
    y: -0.0501723548716838
    z: -0.08684115242583954
  - x: 0.11148669483471743
    y: 0.050172354871683714
    z: -0.08684115242583958
  colors: []
  texture_resource: ''
  texture:
    header:
      stamp:
        sec: 0
        nanosec: 0
      frame_id: ''
    format: ''
    data: []
  uv_coordinates: []
  text: ''
  mesh_resource: ''
  mesh_file:
    filename: ''
    data: []
  mesh_use_embedded_materials: false
---
markers:
- header:
    stamp:
      sec: 0
      nanosec: 0
    frame_id: world
  ns: primal_128
  id: 200
  type: 11
  action: 0
  pose:
    position:
      x: 0.3609339517749695
      y: 0.14050900494730273
      z: 0.15606356058069326
    orientation:
      x: 0.0
      y: 0.0
      z: 0.0
      w: 1.0
  scale:
    x: 1.0
    y: 1.0
    z: 1.0
  color:
    r: 0.8627451062202454
    g: 0.9176470637321472
    b: 0.9803921580314636
    a: 0.800000011920929
  lifetime:
    sec: 0
    nanosec: 0
  frame_locked: false
  points:
  - x: 0.0
    y: 0.0
    z: 0.0
  - x: -0.11143420658978244
    y: 0.050172354871683714
    z: 0.08690849487548959
  - x: -0.11146045071224993
    y: 0.10034470974336743
    z: 3.367122482503671e-05
  - x: 0.0
    y: 0.0
    z: 0.0
  - x: -0.11146045071224993
    y: 0.10034470974336743
    z: 3.367122482503671e-05
  - x: -0.11148669483471743
    y: 0.05017235487168375
    z: -0.08684115242583955
  - x: 0.0
    y: 0.0
    z: 0.0
  - x: -0.11148669483471743
    y: 0.05017235487168375
    z: -0.08684115242583955
  - x: -0.11148669483471743
    y: -0.05017235487168367
    z: -0.0868411524258396
  - x: 0.0
    y: 0.0
    z: 0.0
  - x: -0.11148669483471743
    y: -0.05017235487168367
    z: -0.0868411524258396
  - x: -0.11146045071224993
    y: -0.10034470974336743
    z: 3.367122482493682e-05
  - x: 0.0
    y: 0.0
    z: 0.0
  - x: -0.11146045071224993
    y: -0.10034470974336743
    z: 3.367122482493682e-05
  - x: -0.11143420658978244
    y: -0.0501723548716838
    z: 0.08690849487548954
  - x: 0.0
    y: 0.0
    z: 0.0
  - x: -0.11143420658978244
    y: -0.0501723548716838
    z: 0.08690849487548954
  - x: -0.11143420658978244
    y: 0.050172354871683714
    z: 0.08690849487548959
  colors: []
  texture_resource: ''
  texture:
    header:
      stamp:
        sec: 0
        nanosec: 0
      frame_id: ''
    format: ''
    data: []
  uv_coordinates: []
  text: ''
  mesh_resource: ''
  mesh_file:
    filename: ''
    data: []
  mesh_use_embedded_materials: false
---
markers:
- header:
    stamp:
      sec: 0
      nanosec: 0
    frame_id: world
  ns: primal_129
  id: 200
  type: 11
  action: 0
  pose:
    position:
      x: 0.36073084282387097
      y: -0.14064979325244648
      z: 0.08685927908235391
    orientation:
      x: 0.0
      y: 0.0
      z: 0.0
      w: 1.0
  scale:
    x: 1.0
    y: 1.0
    z: 1.0
  color:
    r: 0.8627451062202454
    g: 0.9176470637321472
    b: 0.9803921580314636
    a: 0.800000011920929
  lifetime:
    sec: 0
    nanosec: 0
  frame_locked: false
  points:
  - x: 0.0
    y: 0.0
    z: 0.0
  - x: -0.11143420658978244
    y: 0.050172354871683714
    z: 0.08690849487548959
  - x: -0.11146045071224993
    y: 0.10034470974336743
    z: 3.367122482503671e-05
  - x: 0.0
    y: 0.0
    z: 0.0
  - x: -0.11146045071224993
    y: 0.10034470974336743
    z: 3.367122482503671e-05
  - x: -0.11148669483471743
    y: 0.05017235487168375
    z: -0.08684115242583955
  - x: 0.0
    y: 0.0
    z: 0.0
  - x: -0.11148669483471743
    y: 0.05017235487168375
    z: -0.08684115242583955
  - x: -0.11148669483471743
    y: -0.05017235487168367
    z: -0.0868411524258396
  - x: 0.0
    y: 0.0
    z: 0.0
  - x: -0.11148669483471743
    y: -0.05017235487168367
    z: -0.0868411524258396
  - x: -0.11146045071224993
    y: -0.10034470974336743
    z: 3.367122482493682e-05
  - x: 0.0
    y: 0.0
    z: 0.0
  - x: -0.11146045071224993
    y: -0.10034470974336743
    z: 3.367122482493682e-05
  - x: -0.11143420658978244
    y: -0.0501723548716838
    z: 0.08690849487548954
  - x: 0.0
    y: 0.0
    z: 0.0
  - x: -0.11143420658978244
    y: -0.0501723548716838
    z: 0.08690849487548954
  - x: -0.11143420658978244
    y: 0.050172354871683714
    z: 0.08690849487548959
  colors: []
  texture_resource: ''
  texture:
    header:
      stamp:
        sec: 0
        nanosec: 0
      frame_id: ''
    format: ''
    data: []
  uv_coordinates: []
  text: ''
  mesh_resource: ''
  mesh_file:
    filename: ''
    data: []
  mesh_use_embedded_materials: false
---
markers:
- header:
    stamp:
      sec: 0
      nanosec: 0
    frame_id: world
  ns: primal_131
  id: 200
  type: 11
  action: 0
  pose:
    position:
      x: -0.36090451209172114
      y: -0.14030417571178172
      z: 0.1521208144279892
    orientation:
      x: 0.0
      y: 0.0
      z: 0.0
      w: 1.0
  scale:
    x: 1.0
    y: 1.0
    z: 1.0
  color:
    r: 0.8627451062202454
    g: 0.9176470637321472
    b: 0.9803921580314636
    a: 0.800000011920929
  lifetime:
    sec: 0
    nanosec: 0
  frame_locked: false
  points:
  - x: 0.0
    y: 0.0
    z: 0.0
  - x: 0.11148669483471743
    y: 0.050172354871683714
    z: -0.08684115242583958
  - x: 0.11146045071224993
    y: 0.10034470974336743
    z: 3.367122482498676e-05
  - x: 0.0
    y: 0.0
    z: 0.0
  - x: 0.11146045071224993
    y: 0.10034470974336743
    z: 3.367122482498676e-05
  - x: 0.11143420658978244
    y: 0.05017235487168375
    z: 0.08690849487548956
  - x: 0.0
    y: 0.0
    z: 0.0
  - x: 0.11143420658978244
    y: 0.05017235487168375
    z: 0.08690849487548956
  - x: 0.11143420658978244
    y: -0.05017235487168367
    z: 0.08690849487548961
  - x: 0.0
    y: 0.0
    z: 0.0
  - x: 0.11143420658978244
    y: -0.05017235487168367
    z: 0.08690849487548961
  - x: 0.11146045071224993
    y: -0.10034470974336743
    z: 3.367122482508665e-05
  - x: 0.0
    y: 0.0
    z: 0.0
  - x: 0.11146045071224993
    y: -0.10034470974336743
    z: 3.367122482508665e-05
  - x: 0.11148669483471743
    y: -0.0501723548716838
    z: -0.08684115242583954
  - x: 0.0
    y: 0.0
    z: 0.0
  - x: 0.11148669483471743
    y: -0.0501723548716838
    z: -0.08684115242583954
  - x: 0.11148669483471743
    y: 0.050172354871683714
    z: -0.08684115242583958
  colors: []
  texture_resource: ''
  texture:
    header:
      stamp:
        sec: 0
        nanosec: 0
      frame_id: ''
    format: ''
    data: []
  uv_coordinates: []
  text: ''
  mesh_resource: ''
  mesh_file:
    filename: ''
    data: []
  mesh_use_embedded_materials: false
---
markers:
- header:
    stamp:
      sec: 0
      nanosec: 0
    frame_id: world
  ns: primal_148
  id: 200
  type: 11
  action: 0
  pose:
    position:
      x: 0.36093387019070866
      y: 0.14049654926120272
      z: 0.15579349561048342
    orientation:
      x: 0.0
      y: 0.0
      z: 0.0
      w: 1.0
  scale:
    x: 1.0
    y: 1.0
    z: 1.0
  color:
    r: 0.8627451062202454
    g: 0.9176470637321472
    b: 0.9803921580314636
    a: 0.800000011920929
  lifetime:
    sec: 0
    nanosec: 0
  frame_locked: false
  points:
  - x: 0.0
    y: 0.0
    z: 0.0
  - x: -0.11143420658978244
    y: 0.050172354871683714
    z: 0.08690849487548959
  - x: -0.11146045071224993
    y: 0.10034470974336743
    z: 3.367122482503671e-05
  - x: 0.0
    y: 0.0
    z: 0.0
  - x: -0.11146045071224993
    y: 0.10034470974336743
    z: 3.367122482503671e-05
  - x: -0.11148669483471743
    y: 0.05017235487168375
    z: -0.08684115242583955
  - x: 0.0
    y: 0.0
    z: 0.0
  - x: -0.11148669483471743
    y: 0.05017235487168375
    z: -0.08684115242583955
  - x: -0.11148669483471743
    y: -0.05017235487168367
    z: -0.0868411524258396
  - x: 0.0
    y: 0.0
    z: 0.0
  - x: -0.11148669483471743
    y: -0.05017235487168367
    z: -0.0868411524258396
  - x: -0.11146045071224993
    y: -0.10034470974336743
    z: 3.367122482493682e-05
  - x: 0.0
    y: 0.0
    z: 0.0
  - x: -0.11146045071224993
    y: -0.10034470974336743
    z: 3.367122482493682e-05
  - x: -0.11143420658978244
    y: -0.0501723548716838
    z: 0.08690849487548954
  - x: 0.0
    y: 0.0
    z: 0.0
  - x: -0.11143420658978244
    y: -0.0501723548716838
    z: 0.08690849487548954
  - x: -0.11143420658978244
    y: 0.050172354871683714
    z: 0.08690849487548959
  colors: []
  texture_resource: ''
  texture:
    header:
      stamp:
        sec: 0
        nanosec: 0
      frame_id: ''
    format: ''
    data: []
  uv_coordinates: []
  text: ''
  mesh_resource: ''
  mesh_file:
    filename: ''
    data: []
  mesh_use_embedded_materials: false
---
markers:
- header:
    stamp:
      sec: 0
      nanosec: 0
    frame_id: world
  ns: primal_150
  id: 200
  type: 11
  action: 0
  pose:
    position:
      x: -0.3611221776696651
      y: 0.13995592537028137
      z: 0.1521700588697559
    orientation:
      x: 0.0
      y: 0.0
      z: 0.0
      w: 1.0
  scale:
    x: 1.0
    y: 1.0
    z: 1.0
  color:
    r: 0.8627451062202454
    g: 0.9176470637321472
    b: 0.9803921580314636
    a: 0.800000011920929
  lifetime:
    sec: 0
    nanosec: 0
  frame_locked: false
  points:
  - x: 0.0
    y: 0.0
    z: 0.0
  - x: 0.11148669483471743
    y: 0.050172354871683714
    z: -0.08684115242583958
  - x: 0.11146045071224993
    y: 0.10034470974336743
    z: 3.367122482498676e-05
  - x: 0.0
    y: 0.0
    z: 0.0
  - x: 0.11146045071224993
    y: 0.10034470974336743
    z: 3.367122482498676e-05
  - x: 0.11143420658978244
    y: 0.05017235487168375
    z: 0.08690849487548956
  - x: 0.0
    y: 0.0
    z: 0.0
  - x: 0.11143420658978244
    y: 0.05017235487168375
    z: 0.08690849487548956
  - x: 0.11143420658978244
    y: -0.05017235487168367
    z: 0.08690849487548961
  - x: 0.0
    y: 0.0
    z: 0.0
  - x: 0.11143420658978244
    y: -0.05017235487168367
    z: 0.08690849487548961
  - x: 0.11146045071224993
    y: -0.10034470974336743
    z: 3.367122482508665e-05
  - x: 0.0
    y: 0.0
    z: 0.0
  - x: 0.11146045071224993
    y: -0.10034470974336743
    z: 3.367122482508665e-05
  - x: 0.11148669483471743
    y: -0.0501723548716838
    z: -0.08684115242583954
  - x: 0.0
    y: 0.0
    z: 0.0
  - x: 0.11148669483471743
    y: -0.0501723548716838
    z: -0.08684115242583954
  - x: 0.11148669483471743
    y: 0.050172354871683714
    z: -0.08684115242583958
  colors: []
  texture_resource: ''
  texture:
    header:
      stamp:
        sec: 0
        nanosec: 0
      frame_id: ''
    format: ''
    data: []
  uv_coordinates: []
  text: ''
  mesh_resource: ''
  mesh_file:
    filename: ''
    data: []
  mesh_use_embedded_materials: false
---
markers:
- header:
    stamp:
      sec: 0
      nanosec: 0
    frame_id: world
  ns: primal_151
  id: 200
  type: 11
  action: 0
  pose:
    position:
      x: -0.3609054037945537
      y: -0.1405931640698926
      z: 0.15507258111116626
    orientation:
      x: 0.0
      y: 0.0
      z: 0.0
      w: 1.0
  scale:
    x: 1.0
    y: 1.0
    z: 1.0
  color:
    r: 0.8627451062202454
    g: 0.9176470637321472
    b: 0.9803921580314636
    a: 0.800000011920929
  lifetime:
    sec: 0
    nanosec: 0
  frame_locked: false
  points:
  - x: 0.0
    y: 0.0
    z: 0.0
  - x: 0.11148669483471743
    y: 0.050172354871683714
    z: -0.08684115242583958
  - x: 0.11146045071224993
    y: 0.10034470974336743
    z: 3.367122482498676e-05
  - x: 0.0
    y: 0.0
    z: 0.0
  - x: 0.11146045071224993
    y: 0.10034470974336743
    z: 3.367122482498676e-05
  - x: 0.11143420658978244
    y: 0.05017235487168375
    z: 0.08690849487548956
  - x: 0.0
    y: 0.0
    z: 0.0
  - x: 0.11143420658978244
    y: 0.05017235487168375
    z: 0.08690849487548956
  - x: 0.11143420658978244
    y: -0.05017235487168367
    z: 0.08690849487548961
  - x: 0.0
    y: 0.0
    z: 0.0
  - x: 0.11143420658978244
    y: -0.05017235487168367
    z: 0.08690849487548961
  - x: 0.11146045071224993
    y: -0.10034470974336743
    z: 3.367122482508665e-05
  - x: 0.0
    y: 0.0
    z: 0.0
  - x: 0.11146045071224993
    y: -0.10034470974336743
    z: 3.367122482508665e-05
  - x: 0.11148669483471743
    y: -0.0501723548716838
    z: -0.08684115242583954
  - x: 0.0
    y: 0.0
    z: 0.0
  - x: 0.11148669483471743
    y: -0.0501723548716838
    z: -0.08684115242583954
  - x: 0.11148669483471743
    y: 0.050172354871683714
    z: -0.08684115242583958
  colors: []
  texture_resource: ''
  texture:
    header:
      stamp:
        sec: 0
        nanosec: 0
      frame_id: ''
    format: ''
    data: []
  uv_coordinates: []
  text: ''
  mesh_resource: ''
  mesh_file:
    filename: ''
    data: []
  mesh_use_embedded_materials: false
---
markers:
- header:
    stamp:
      sec: 0
      nanosec: 0
    frame_id: world
  ns: primal_168
  id: 200
  type: 11
  action: 0
  pose:
    position:
      x: 0.3609344199194031
      y: 0.14057026646230106
      z: 0.15761323956901718
    orientation:
      x: 0.0
      y: 0.0
      z: 0.0
      w: 1.0
  scale:
    x: 1.0
    y: 1.0
    z: 1.0
  color:
    r: 0.8627451062202454
    g: 0.9176470637321472
    b: 0.9803921580314636
    a: 0.800000011920929
  lifetime:
    sec: 0
    nanosec: 0
  frame_locked: false
  points:
  - x: 0.0
    y: 0.0
    z: 0.0
  - x: -0.11143420658978244
    y: 0.050172354871683714
    z: 0.08690849487548959
  - x: -0.11146045071224993
    y: 0.10034470974336743
    z: 3.367122482503671e-05
  - x: 0.0
    y: 0.0
    z: 0.0
  - x: -0.11146045071224993
    y: 0.10034470974336743
    z: 3.367122482503671e-05
  - x: -0.11148669483471743
    y: 0.05017235487168375
    z: -0.08684115242583955
  - x: 0.0
    y: 0.0
    z: 0.0
  - x: -0.11148669483471743
    y: 0.05017235487168375
    z: -0.08684115242583955
  - x: -0.11148669483471743
    y: -0.05017235487168367
    z: -0.0868411524258396
  - x: 0.0
    y: 0.0
    z: 0.0
  - x: -0.11148669483471743
    y: -0.05017235487168367
    z: -0.0868411524258396
  - x: -0.11146045071224993
    y: -0.10034470974336743
    z: 3.367122482493682e-05
  - x: 0.0
    y: 0.0
    z: 0.0
  - x: -0.11146045071224993
    y: -0.10034470974336743
    z: 3.367122482493682e-05
  - x: -0.11143420658978244
    y: -0.0501723548716838
    z: 0.08690849487548954
  - x: 0.0
    y: 0.0
    z: 0.0
  - x: -0.11143420658978244
    y: -0.0501723548716838
    z: 0.08690849487548954
  - x: -0.11143420658978244
    y: 0.050172354871683714
    z: 0.08690849487548959
  colors: []
  texture_resource: ''
  texture:
    header:
      stamp:
        sec: 0
        nanosec: 0
      frame_id: ''
    format: ''
    data: []
  uv_coordinates: []
  text: ''
  mesh_resource: ''
  mesh_file:
    filename: ''
    data: []
  mesh_use_embedded_materials: false
---
markers:
- header:
    stamp:
      sec: 0
      nanosec: 0
    frame_id: world
  ns: primal_169
  id: 200
  type: 11
  action: 0
  pose:
    position:
      x: 0.36076101869392957
      y: -0.14015824004237346
      z: 0.15182525303307737
    orientation:
      x: 0.0
      y: 0.0
      z: 0.0
      w: 1.0
  scale:
    x: 1.0
    y: 1.0
    z: 1.0
  color:
    r: 0.8627451062202454
    g: 0.9176470637321472
    b: 0.9803921580314636
    a: 0.800000011920929
  lifetime:
    sec: 0
    nanosec: 0
  frame_locked: false
  points:
  - x: 0.0
    y: 0.0
    z: 0.0
  - x: -0.11143420658978244
    y: 0.050172354871683714
    z: 0.08690849487548959
  - x: -0.11146045071224993
    y: 0.10034470974336743
    z: 3.367122482503671e-05
  - x: 0.0
    y: 0.0
    z: 0.0
  - x: -0.11146045071224993
    y: 0.10034470974336743
    z: 3.367122482503671e-05
  - x: -0.11148669483471743
    y: 0.05017235487168375
    z: -0.08684115242583955
  - x: 0.0
    y: 0.0
    z: 0.0
  - x: -0.11148669483471743
    y: 0.05017235487168375
    z: -0.08684115242583955
  - x: -0.11148669483471743
    y: -0.05017235487168367
    z: -0.0868411524258396
  - x: 0.0
    y: 0.0
    z: 0.0
  - x: -0.11148669483471743
    y: -0.05017235487168367
    z: -0.0868411524258396
  - x: -0.11146045071224993
    y: -0.10034470974336743
    z: 3.367122482493682e-05
  - x: 0.0
    y: 0.0
    z: 0.0
  - x: -0.11146045071224993
    y: -0.10034470974336743
    z: 3.367122482493682e-05
  - x: -0.11143420658978244
    y: -0.0501723548716838
    z: 0.08690849487548954
  - x: 0.0
    y: 0.0
    z: 0.0
  - x: -0.11143420658978244
    y: -0.0501723548716838
    z: 0.08690849487548954
  - x: -0.11143420658978244
    y: 0.050172354871683714
    z: 0.08690849487548959
  colors: []
  texture_resource: ''
  texture:
    header:
      stamp:
        sec: 0
        nanosec: 0
      frame_id: ''
    format: ''
    data: []
  uv_coordinates: []
  text: ''
  mesh_resource: ''
  mesh_file:
    filename: ''
    data: []
  mesh_use_embedded_materials: false
---
markers:
- header:
    stamp:
      sec: 0
      nanosec: 0
    frame_id: world
  ns: primal_170
  id: 200
  type: 11
  action: 0
  pose:
    position:
      x: -0.36112344974823685
      y: 0.140075565693899
      z: 0.15638096749536504
    orientation:
      x: 0.0
      y: 0.0
      z: 0.0
      w: 1.0
  scale:
    x: 1.0
    y: 1.0
    z: 1.0
  color:
    r: 0.8627451062202454
    g: 0.9176470637321472
    b: 0.9803921580314636
    a: 0.800000011920929
  lifetime:
    sec: 0
    nanosec: 0
  frame_locked: false
  points:
  - x: 0.0
    y: 0.0
    z: 0.0
  - x: 0.11148669483471743
    y: 0.050172354871683714
    z: -0.08684115242583958
  - x: 0.11146045071224993
    y: 0.10034470974336743
    z: 3.367122482498676e-05
  - x: 0.0
    y: 0.0
    z: 0.0
  - x: 0.11146045071224993
    y: 0.10034470974336743
    z: 3.367122482498676e-05
  - x: 0.11143420658978244
    y: 0.05017235487168375
    z: 0.08690849487548956
  - x: 0.0
    y: 0.0
    z: 0.0
  - x: 0.11143420658978244
    y: 0.05017235487168375
    z: 0.08690849487548956
  - x: 0.11143420658978244
    y: -0.05017235487168367
    z: 0.08690849487548961
  - x: 0.0
    y: 0.0
    z: 0.0
  - x: 0.11143420658978244
    y: -0.05017235487168367
    z: 0.08690849487548961
  - x: 0.11146045071224993
    y: -0.10034470974336743
    z: 3.367122482508665e-05
  - x: 0.0
    y: 0.0
    z: 0.0
  - x: 0.11146045071224993
    y: -0.10034470974336743
    z: 3.367122482508665e-05
  - x: 0.11148669483471743
    y: -0.0501723548716838
    z: -0.08684115242583954
  - x: 0.0
    y: 0.0
    z: 0.0
  - x: 0.11148669483471743
    y: -0.0501723548716838
    z: -0.08684115242583954
  - x: 0.11148669483471743
    y: 0.050172354871683714
    z: -0.08684115242583958
  colors: []
  texture_resource: ''
  texture:
    header:
      stamp:
        sec: 0
        nanosec: 0
      frame_id: ''
    format: ''
    data: []
  uv_coordinates: []
  text: ''
  mesh_resource: ''
  mesh_file:
    filename: ''
    data: []
  mesh_use_embedded_materials: false
---
markers:
- header:
    stamp:
      sec: 0
      nanosec: 0
    frame_id: world
  ns: primal_171
  id: 200
  type: 11
  action: 0
  pose:
    position:
      x: -0.3609060699525073
      y: -0.14072481851740182
      z: 0.15727773599012687
    orientation:
      x: 0.0
      y: 0.0
      z: 0.0
      w: 1.0
  scale:
    x: 1.0
    y: 1.0
    z: 1.0
  color:
    r: 0.8627451062202454
    g: 0.9176470637321472
    b: 0.9803921580314636
    a: 0.800000011920929
  lifetime:
    sec: 0
    nanosec: 0
  frame_locked: false
  points:
  - x: 0.0
    y: 0.0
    z: 0.0
  - x: 0.11148669483471743
    y: 0.050172354871683714
    z: -0.08684115242583958
  - x: 0.11146045071224993
    y: 0.10034470974336743
    z: 3.367122482498676e-05
  - x: 0.0
    y: 0.0
    z: 0.0
  - x: 0.11146045071224993
    y: 0.10034470974336743
    z: 3.367122482498676e-05
  - x: 0.11143420658978244
    y: 0.05017235487168375
    z: 0.08690849487548956
  - x: 0.0
    y: 0.0
    z: 0.0
  - x: 0.11143420658978244
    y: 0.05017235487168375
    z: 0.08690849487548956
  - x: 0.11143420658978244
    y: -0.05017235487168367
    z: 0.08690849487548961
  - x: 0.0
    y: 0.0
    z: 0.0
  - x: 0.11143420658978244
    y: -0.05017235487168367
    z: 0.08690849487548961
  - x: 0.11146045071224993
    y: -0.10034470974336743
    z: 3.367122482508665e-05
  - x: 0.0
    y: 0.0
    z: 0.0
  - x: 0.11146045071224993
    y: -0.10034470974336743
    z: 3.367122482508665e-05
  - x: 0.11148669483471743
    y: -0.0501723548716838
    z: -0.08684115242583954
  - x: 0.0
    y: 0.0
    z: 0.0
  - x: 0.11148669483471743
    y: -0.0501723548716838
    z: -0.08684115242583954
  - x: 0.11148669483471743
    y: 0.050172354871683714
    z: -0.08684115242583958
  colors: []
  texture_resource: ''
  texture:
    header:
      stamp:
        sec: 0
        nanosec: 0
      frame_id: ''
    format: ''
    data: []
  uv_coordinates: []
  text: ''
  mesh_resource: ''
  mesh_file:
    filename: ''
    data: []
  mesh_use_embedded_materials: false
---
markers:
- header:
    stamp:
      sec: 0
      nanosec: 0
    frame_id: world
  ns: primal_188
  id: 200
  type: 11
  action: 0
  pose:
    position:
      x: 0.36093494557124467
      y: 0.14060898818521061
      z: 0.15935328292680034
    orientation:
      x: 0.0
      y: 0.0
      z: 0.0
      w: 1.0
  scale:
    x: 1.0
    y: 1.0
    z: 1.0
  color:
    r: 0.8627451062202454
    g: 0.9176470637321472
    b: 0.9803921580314636
    a: 0.800000011920929
  lifetime:
    sec: 0
    nanosec: 0
  frame_locked: false
  points:
  - x: 0.0
    y: 0.0
    z: 0.0
  - x: -0.11143420658978244
    y: 0.050172354871683714
    z: 0.08690849487548959
  - x: -0.11146045071224993
    y: 0.10034470974336743
    z: 3.367122482503671e-05
  - x: 0.0
    y: 0.0
    z: 0.0
  - x: -0.11146045071224993
    y: 0.10034470974336743
    z: 3.367122482503671e-05
  - x: -0.11148669483471743
    y: 0.05017235487168375
    z: -0.08684115242583955
  - x: 0.0
    y: 0.0
    z: 0.0
  - x: -0.11148669483471743
    y: 0.05017235487168375
    z: -0.08684115242583955
  - x: -0.11148669483471743
    y: -0.05017235487168367
    z: -0.0868411524258396
  - x: 0.0
    y: 0.0
    z: 0.0
  - x: -0.11148669483471743
    y: -0.05017235487168367
    z: -0.0868411524258396
  - x: -0.11146045071224993
    y: -0.10034470974336743
    z: 3.367122482493682e-05
  - x: 0.0
    y: 0.0
    z: 0.0
  - x: -0.11146045071224993
    y: -0.10034470974336743
    z: 3.367122482493682e-05
  - x: -0.11143420658978244
    y: -0.0501723548716838
    z: 0.08690849487548954
  - x: 0.0
    y: 0.0
    z: 0.0
  - x: -0.11143420658978244
    y: -0.0501723548716838
    z: 0.08690849487548954
  - x: -0.11143420658978244
    y: 0.050172354871683714
    z: 0.08690849487548959
  colors: []
  texture_resource: ''
  texture:
    header:
      stamp:
        sec: 0
        nanosec: 0
      frame_id: ''
    format: ''
    data: []
  uv_coordinates: []
  text: ''
  mesh_resource: ''
  mesh_file:
    filename: ''
    data: []
  mesh_use_embedded_materials: false
---
markers:
- header:
    stamp:
      sec: 0
      nanosec: 0
    frame_id: world
  ns: primal_189
  id: 200
  type: 11
  action: 0
  pose:
    position:
      x: 0.3607618509989094
      y: -0.1403138734073042
      z: 0.15458039748064514
    orientation:
      x: 0.0
      y: 0.0
      z: 0.0
      w: 1.0
  scale:
    x: 1.0
    y: 1.0
    z: 1.0
  color:
    r: 0.8627451062202454
    g: 0.9176470637321472
    b: 0.9803921580314636
    a: 0.800000011920929
  lifetime:
    sec: 0
    nanosec: 0
  frame_locked: false
  points:
  - x: 0.0
    y: 0.0
    z: 0.0
  - x: -0.11143420658978244
    y: 0.050172354871683714
    z: 0.08690849487548959
  - x: -0.11146045071224993
    y: 0.10034470974336743
    z: 3.367122482503671e-05
  - x: 0.0
    y: 0.0
    z: 0.0
  - x: -0.11146045071224993
    y: 0.10034470974336743
    z: 3.367122482503671e-05
  - x: -0.11148669483471743
    y: 0.05017235487168375
    z: -0.08684115242583955
  - x: 0.0
    y: 0.0
    z: 0.0
  - x: -0.11148669483471743
    y: 0.05017235487168375
    z: -0.08684115242583955
  - x: -0.11148669483471743
    y: -0.05017235487168367
    z: -0.0868411524258396
  - x: 0.0
    y: 0.0
    z: 0.0
  - x: -0.11148669483471743
    y: -0.05017235487168367
    z: -0.0868411524258396
  - x: -0.11146045071224993
    y: -0.10034470974336743
    z: 3.367122482493682e-05
  - x: 0.0
    y: 0.0
    z: 0.0
  - x: -0.11146045071224993
    y: -0.10034470974336743
    z: 3.367122482493682e-05
  - x: -0.11143420658978244
    y: -0.0501723548716838
    z: 0.08690849487548954
  - x: 0.0
    y: 0.0
    z: 0.0
  - x: -0.11143420658978244
    y: -0.0501723548716838
    z: 0.08690849487548954
  - x: -0.11143420658978244
    y: 0.050172354871683714
    z: 0.08690849487548959
  colors: []
  texture_resource: ''
  texture:
    header:
      stamp:
        sec: 0
        nanosec: 0
      frame_id: ''
    format: ''
    data: []
  uv_coordinates: []
  text: ''
  mesh_resource: ''
  mesh_file:
    filename: ''
    data: []
  mesh_use_embedded_materials: false
---
markers:
- header:
    stamp:
      sec: 0
      nanosec: 0
    frame_id: world
  ns: primal_190
  id: 200
  type: 11
  action: 0
  pose:
    position:
      x: -0.361123471751719
      y: 0.14007705048475216
      z: 0.15645380470626719
    orientation:
      x: 0.0
      y: 0.0
      z: 0.0
      w: 1.0
  scale:
    x: 1.0
    y: 1.0
    z: 1.0
  color:
    r: 0.8627451062202454
    g: 0.9176470637321472
    b: 0.9803921580314636
    a: 0.800000011920929
  lifetime:
    sec: 0
    nanosec: 0
  frame_locked: false
  points:
  - x: 0.0
    y: 0.0
    z: 0.0
  - x: 0.11148669483471743
    y: 0.050172354871683714
    z: -0.08684115242583958
  - x: 0.11146045071224993
    y: 0.10034470974336743
    z: 3.367122482498676e-05
  - x: 0.0
    y: 0.0
    z: 0.0
  - x: 0.11146045071224993
    y: 0.10034470974336743
    z: 3.367122482498676e-05
  - x: 0.11143420658978244
    y: 0.05017235487168375
    z: 0.08690849487548956
  - x: 0.0
    y: 0.0
    z: 0.0
  - x: 0.11143420658978244
    y: 0.05017235487168375
    z: 0.08690849487548956
  - x: 0.11143420658978244
    y: -0.05017235487168367
    z: 0.08690849487548961
  - x: 0.0
    y: 0.0
    z: 0.0
  - x: 0.11143420658978244
    y: -0.05017235487168367
    z: 0.08690849487548961
  - x: 0.11146045071224993
    y: -0.10034470974336743
    z: 3.367122482508665e-05
  - x: 0.0
    y: 0.0
    z: 0.0
  - x: 0.11146045071224993
    y: -0.10034470974336743
    z: 3.367122482508665e-05
  - x: 0.11148669483471743
    y: -0.0501723548716838
    z: -0.08684115242583954
  - x: 0.0
    y: 0.0
    z: 0.0
  - x: 0.11148669483471743
    y: -0.0501723548716838
    z: -0.08684115242583954
  - x: 0.11148669483471743
    y: 0.050172354871683714
    z: -0.08684115242583958
  colors: []
  texture_resource: ''
  texture:
    header:
      stamp:
        sec: 0
        nanosec: 0
      frame_id: ''
    format: ''
    data: []
  uv_coordinates: []
  text: ''
  mesh_resource: ''
  mesh_file:
    filename: ''
    data: []
  mesh_use_embedded_materials: false
---
markers:
- header:
    stamp:
      sec: 0
      nanosec: 0
    frame_id: world
  ns: primal_191
  id: 200
  type: 11
  action: 0
  pose:
    position:
      x: -0.36090681931683066
      y: -0.14083765328458417
      z: 0.1597583254484792
    orientation:
      x: 0.0
      y: 0.0
      z: 0.0
      w: 1.0
  scale:
    x: 1.0
    y: 1.0
    z: 1.0
  color:
    r: 0.8627451062202454
    g: 0.9176470637321472
    b: 0.9803921580314636
    a: 0.800000011920929
  lifetime:
    sec: 0
    nanosec: 0
  frame_locked: false
  points:
  - x: 0.0
    y: 0.0
    z: 0.0
  - x: 0.11148669483471743
    y: 0.050172354871683714
    z: -0.08684115242583958
  - x: 0.11146045071224993
    y: 0.10034470974336743
    z: 3.367122482498676e-05
  - x: 0.0
    y: 0.0
    z: 0.0
  - x: 0.11146045071224993
    y: 0.10034470974336743
    z: 3.367122482498676e-05
  - x: 0.11143420658978244
    y: 0.05017235487168375
    z: 0.08690849487548956
  - x: 0.0
    y: 0.0
    z: 0.0
  - x: 0.11143420658978244
    y: 0.05017235487168375
    z: 0.08690849487548956
  - x: 0.11143420658978244
    y: -0.05017235487168367
    z: 0.08690849487548961
  - x: 0.0
    y: 0.0
    z: 0.0
  - x: 0.11143420658978244
    y: -0.05017235487168367
    z: 0.08690849487548961
  - x: 0.11146045071224993
    y: -0.10034470974336743
    z: 3.367122482508665e-05
  - x: 0.0
    y: 0.0
    z: 0.0
  - x: 0.11146045071224993
    y: -0.10034470974336743
    z: 3.367122482508665e-05
  - x: 0.11148669483471743
    y: -0.0501723548716838
    z: -0.08684115242583954
  - x: 0.0
    y: 0.0
    z: 0.0
  - x: 0.11148669483471743
    y: -0.0501723548716838
    z: -0.08684115242583954
  - x: 0.11148669483471743
    y: 0.050172354871683714
    z: -0.08684115242583958
  colors: []
  texture_resource: ''
  texture:
    header:
      stamp:
        sec: 0
        nanosec: 0
      frame_id: ''
    format: ''
    data: []
  uv_coordinates: []
  text: ''
  mesh_resource: ''
  mesh_file:
    filename: ''
    data: []
  mesh_use_embedded_materials: false
---
